{
  "type": "FeatureCollection",
  "features": [
    {
      "type": "Feature",
      "geometry": {
        "type": "Point",
        "coordinates": [
          92.99656920767207,
          11.16709112961025
        ]
      },
      "properties": {
        "state:name": "Andaman and Nicobar Island"
      }
    },
    {
      "type": "Feature",
      "geometry": {
        "type": "Point",
        "coordinates": [
          80.32862975363014,
          15.949920107462196
        ]
      },
      "properties": {
        "state:name": "Andhra Pradesh"
      }
    },
    {
      "type": "Feature",
      "geometry": {
        "type": "Point",
        "coordinates": [
          94.91431017331853,
          27.890595836374338
        ]
      },
      "properties": {
        "state:name": "Arunachal Pradesh"
      }
    },
    {
      "type": "Feature",
      "geometry": {
        "type": "Point",
        "coordinates": [
          92.64472704844043,
          26.09472690102027
        ]
      },
      "properties": {
        "state:name": "Assam"
      }
    },
    {
      "type": "Feature",
      "geometry": {
        "type": "Point",
        "coordinates": [
          85.60065811537227,
          25.7508455938916
        ]
      },
      "properties": {
        "state:name": "Bihar"
      }
    },
    {
      "type": "Feature",
      "geometry": {
        "type": "Point",
        "coordinates": [
          76.7770472512697,
          30.73844215268325
        ]
      },
      "properties": {
        "state:name": "Chandigarh"
      }
    },
    {
      "type": "Feature",
      "geometry": {
        "type": "Point",
        "coordinates": [
          82.05436490558144,
          21.216626160245823
        ]
      },
      "properties": {
        "state:name": "Chhattisgarh"
      }
    },
    {
      "type": "Feature",
      "geometry": {
        "type": "Point",
        "coordinates": [
          73.0785752943307,
          20.208748680070375
        ]
      },
      "properties": {
        "state:name": "Dadra and Nagar Haveli"
      }
    },
    {
      "type": "Feature",
      "geometry": {
        "type": "Point",
        "coordinates": [
          71.84250235261818,
          20.579740847229036
        ]
      },
      "properties": {
        "state:name": "Daman and Diu"
      }
    },
    {
      "type": "Feature",
      "geometry": {
        "type": "Point",
        "coordinates": [
          74.01710045319463,
          15.380998560276623
        ]
      },
      "properties": {
        "state:name": "Goa"
      }
    },
    {
      "type": "Feature",
      "geometry": {
        "type": "Point",
        "coordinates": [
          71.39564771221761,
          22.52586760777349
        ]
      },
      "properties": {
        "state:name": "Gujarat"
      }
    },
    {
      "type": "Feature",
      "geometry": {
        "type": "Point",
        "coordinates": [
          76.37631522596752,
          29.15161157030545
        ]
      },
      "properties": {
        "state:name": "Haryana"
      }
    },
    {
      "type": "Feature",
      "geometry": {
        "type": "Point",
        "coordinates": [
          77.36214263673031,
          31.820601646047663
        ]
      },
      "properties": {
        "state:name": "Himachal Pradesh"
      }
    },
    {
      "type": "Feature",
      "geometry": {
        "type": "Point",
        "coordinates": [
          76.24206976195877,
          34.49762197524187
        ]
      },
      "properties": {
        "state:name": "Jammu and Kashmir"
      }
    },
    {
      "type": "Feature",
      "geometry": {
        "type": "Point",
        "coordinates": [
          85.83723966632157,
          23.64631666312061
        ]
      },
      "properties": {
        "state:name": "Jharkhand"
      }
    },
    {
      "type": "Feature",
      "geometry": {
        "type": "Point",
        "coordinates": [
          76.38888842653034,
          14.912032489666926
        ]
      },
      "properties": {
        "state:name": "Karnataka"
      }
    },
    {
      "type": "Feature",
      "geometry": {
        "type": "Point",
        "coordinates": [
          76.34113629750522,
          10.790314032813532
        ]
      },
      "properties": {
        "state:name": "Kerala"
      }
    },
    {
      "type": "Feature",
      "geometry": {
        "type": "Point",
        "coordinates": [
          72.62187838187275,
          11.019717903667463
        ]
      },
      "properties": {
        "state:name": "Lakshadweep"
      }
    },
    {
      "type": "Feature",
      "geometry": {
        "type": "Point",
        "coordinates": [
          78.31669253686735,
          24.09501788800063
        ]
      },
      "properties": {
        "state:name": "Madhya Pradesh"
      }
    },
    {
      "type": "Feature",
      "geometry": {
        "type": "Point",
        "coordinates": [
          76.29630120188695,
          19.28889233347893
        ]
      },
      "properties": {
        "state:name": "Maharashtra"
      }
    },
    {
      "type": "Feature",
      "geometry": {
        "type": "Point",
        "coordinates": [
          93.79396486912002,
          24.7528026697781
        ]
      },
      "properties": {
        "state:name": "Manipur"
      }
    },
    {
      "type": "Feature",
      "geometry": {
        "type": "Point",
        "coordinates": [
          91.4455455199512,
          25.5944439521294
        ]
      },
      "properties": {
        "state:name": "Meghalaya"
      }
    },
    {
      "type": "Feature",
      "geometry": {
        "type": "Point",
        "coordinates": [
          92.83194952690853,
          23.25853882170357
        ]
      },
      "properties": {
        "state:name": "Mizoram"
      }
    },
    {
      "type": "Feature",
      "geometry": {
        "type": "Point",
        "coordinates": [
          94.34990705125581,
          26.016005827789975
        ]
      },
      "properties": {
        "state:name": "Nagaland"
      }
    },
    {
      "type": "Feature",
      "geometry": {
        "type": "Point",
        "coordinates": [
          77.11691455490657,
          28.64588755358886
        ]
      },
      "properties": {
        "state:name": "Delhi"
      }
    },
    {
      "type": "Feature",
      "geometry": {
        "type": "Point",
        "coordinates": [
          79.60053361537338,
          12.006190971108914
        ]
      },
      "properties": {
        "state:name": "Puducherry"
      }
    },
    {
      "type": "Feature",
      "geometry": {
        "type": "Point",
        "coordinates": [
          75.5306953320424,
          30.87140653228358
        ]
      },
      "properties": {
        "state:name": "Punjab"
      }
    },
    {
      "type": "Feature",
      "geometry": {
        "type": "Point",
        "coordinates": [
          75.1603803296751,
          26.009499764894112
        ]
      },
      "properties": {
        "state:name": "Rajasthan"
      }
    },
    {
      "type": "Feature",
      "geometry": {
        "type": "Point",
        "coordinates": [
          88.48834234616578,
          27.57327069122104
        ]
      },
      "properties": {
        "state:name": "Sikkim"
      }
    },
    {
      "type": "Feature",
      "geometry": {
        "type": "Point",
        "coordinates": [
          78.44901342726853,
          11.184626190856294
        ]
      },
      "properties": {
        "state:name": "Tamil Nadu"
      }
    },
    {
      "type": "Feature",
      "geometry": {
        "type": "Point",
        "coordinates": [
          79.0634613791745,
          17.83686703182211
        ]
      },
      "properties": {
        "state:name": "Telangana"
      }
    },
    {
      "type": "Feature",
      "geometry": {
        "type": "Point",
        "coordinates": [
          91.73173423496398,
          23.711884308299467
        ]
      },
      "properties": {
        "state:name": "Tripura"
      }
    },
    {
      "type": "Feature",
      "geometry": {
        "type": "Point",
        "coordinates": [
          80.17911121595056,
          26.4138305305635
        ]
      },
      "properties": {
        "state:name": "Uttar Pradesh"
      }
    },
    {
      "type": "Feature",
      "geometry": {
        "type": "Point",
        "coordinates": [
          79.13255903718031,
          30.08351179258033
        ]
      },
      "properties": {
        "state:name": "Uttarakhand"
      }
    },
    {
      "type": "Feature",
      "geometry": {
        "type": "Point",
        "coordinates": [
          88.38758479653039,
          23.474237958941192
        ]
      },
      "properties": {
        "state:name": "West Bengal"
      }
    },
    {
      "type": "Feature",
      "geometry": {
        "type": "Point",
        "coordinates": [
          84.11374867247085,
          20.26809517233498
        ]
      },
      "properties": {
        "state:name": "Odisha"
      }
    }
  ]
}